{"type":"FeatureCollection","features":[{"type":"Feature","geometry":{"type":"Point","coordinates":[46.6865063535394,34.4334853149435]},"properties":{"name":"استان کرمانشاه","province_coding":1,"admin_level":4}},{"type":"Feature","geometry":{"type":"Point","coordinates":[50.8415403229209,30.767428104464]},"properties":{"name":"استان کهگیلویه و بویر احمد","province_coding":2,"admin_level":4}},{"type":"Feature","geometry":{"type":"Point","coordinates":[54.6691949003857,35.4240161619584]},"properties":{"name":"استان سمنان","province_coding":3,"admin_level":4}},{"type":"Feature","geometry":{"type":"Point","coordinates":[51.0199825939584,34.7007311689884]},"properties":{"name":"استان قم","province_coding":4,"admin_level":4}},{"type":"Feature","geometry":{"type":"Point","coordinates":[50.8063379014435,35.9714551221133]},"properties":{"name":"استان البرز","province_coding":5,"admin_level":4}},{"type":"Feature","geometry":{"type":"Point","coordinates":[60.7149909588588,27.8228971236203]},"properties":{"name":"استان سیستان و بلوچستان","province_coding":6,"admin_level":4}},{"type":"Feature","geometry":{"type":"Point","coordinates":[58.3230005364051,32.9274727976262]},"properties":{"name":"استان خراسان جنوبی","province_coding":7,"admin_level":4}},{"type":"Feature","geometry":{"type":"Point","coordinates":[49.9569556871289,34.4902969003955]},"properties":{"name":"استان مرکزی","province_coding":8,"admin_level":4}},{"type":"Feature","geometry":{"type":"Point","coordinates":[57.3006365531021,29.6134114852499]},"properties":{"name":"استان کرمان","province_coding":9,"admin_level":4}},{"type":"Feature","geometry":{"type":"Point","coordinates":[51.2162288920989,28.6871144012559]},"properties":{"name":"استان بوشهر","province_coding":10,"admin_level":4}},{"type":"Feature","geometry":{"type":"Point","coordinates":[57.1300738085225,37.4001732270019]},"properties":{"name":"استان خراسان شمالی","province_coding":11,"admin_level":4}},{"type":"Feature","geometry":{"type":"Point","coordinates":[52.3694316937253,36.432205891601]},"properties":{"name":"استان مازندران","province_coding":12,"admin_level":4}},{"type":"Feature","geometry":{"type":"Point","coordinates":[59.0644806138384,35.6838799883506]},"properties":{"name":"استان خراسان رضوی","province_coding":13,"admin_level":4}},{"type":"Feature","geometry":{"type":"Point","coordinates":[48.6103544846406,34.8883696656259]},"properties":{"name":"استان همدان","province_coding":14,"admin_level":4}},{"type":"Feature","geometry":{"type":"Point","coordinates":[48.3867271346684,36.5011433206201]},"properties":{"name":"استان زنجان","province_coding":15,"admin_level":4}},{"type":"Feature","geometry":{"type":"Point","coordinates":[45.3544578148988,37.6479555695956]},"properties":{"name":"استان آذربایجان غربی","province_coding":16,"admin_level":4}},{"type":"Feature","geometry":{"type":"Point","coordinates":[54.607989108817,31.804539285719]},"properties":{"name":"استان یزد","province_coding":17,"admin_level":4}},{"type":"Feature","geometry":{"type":"Point","coordinates":[56.1516238949085,26.7804205317462]},"properties":{"name":"استان هرمزگان","province_coding":18,"admin_level":4}},{"type":"Feature","geometry":{"type":"Point","coordinates":[49.0455101822803,31.3458245981671]},"properties":{"name":"استان خوزستان","province_coding":19,"admin_level":4}},{"type":"Feature","geometry":{"type":"Point","coordinates":[46.9872159460937,35.6784381380153]},"properties":{"name":"استان کردستان","province_coding":20,"admin_level":4}},{"type":"Feature","geometry":{"type":"Point","coordinates":[55.0512384781234,37.3084551208638]},"properties":{"name":"استان گلستان","province_coding":21,"admin_level":4}},{"type":"Feature","geometry":{"type":"Point","coordinates":[48.4356654813666,33.4641996590275]},"properties":{"name":"استان لرستان","province_coding":22,"admin_level":4}},{"type":"Feature","geometry":{"type":"Point","coordinates":[51.72790119385,35.5565721356656]},"properties":{"name":"استان تهران","province_coding":23,"admin_level":4}},{"type":"Feature","geometry":{"type":"Point","coordinates":[50.6453851839591,32.0417124281185]},"properties":{"name":"استان چهارمحال و بختیاری","province_coding":24,"admin_level":4}},{"type":"Feature","geometry":{"type":"Point","coordinates":[46.6552886545732,38.0000614365256]},"properties":{"name":"استان آذربایجان شرقی","province_coding":25,"admin_level":4}},{"type":"Feature","geometry":{"type":"Point","coordinates":[49.4958350618441,37.3414543811002]},"properties":{"name":"استان گیلان","province_coding":26,"admin_level":4}},{"type":"Feature","geometry":{"type":"Point","coordinates":[48.0790801171031,38.443121759654]},"properties":{"name":"استان اردبیل","province_coding":27,"admin_level":4}},{"type":"Feature","geometry":{"type":"Point","coordinates":[49.765573823907,36.0892330217853]},"properties":{"name":"استان قزوین","province_coding":28,"admin_level":4}},{"type":"Feature","geometry":{"type":"Point","coordinates":[53.2686277656501,29.1638299942221]},"properties":{"name":"استان فارس","province_coding":29,"admin_level":4}},{"type":"Feature","geometry":{"type":"Point","coordinates":[52.5030774443638,33.1269509878398]},"properties":{"name":"استان اصفهان","province_coding":30,"admin_level":4}},{"type":"Feature","geometry":{"type":"Point","coordinates":[46.9373875694638,33.1172467557495]},"properties":{"name":"استان ایلام","province_coding":31,"admin_level":4}}]}